{
  "peaks": [
    {
      "id": 1,
      "name": "Mount Elbert",
      "latitude": 39.1178,
      "longitude": -106.4454,
      "elevation": 14440,
      "country": "United States",
      "state": "Colorado",
      "region": "Sawatch Range"
    },
    {
      "id": 2,
      "name": "Mount Massive",
      "latitude": 39.1875,
      "longitude": -106.4756,
      "elevation": 14428,
      "country": "United States",
      "state": "Colorado",
      "region": "Sawatch Range"
    },
    {
      "id": 3,
      "name": "Mount Harvard",
      "latitude": 38.9244,
      "longitude": -106.3207,
      "elevation": 14421,
      "country": "United States",
      "state": "Colorado",
      "region": "Collegiate Peaks"
    },
    {
      "id": 4,
      "name": "Blanca Peak",
      "latitude": 37.5775,
      "longitude": -105.4856,
      "elevation": 14351,
      "country": "United States",
      "state": "Colorado",
      "region": "Sangre de Cristo Range"
    },
    {
      "id": 5,
      "name": "La Plata Peak",
      "latitude": 39.0294,
      "longitude": -106.4728,
      "elevation": 14343,
      "country": "United States",
      "state": "Colorado",
      "region": "Sawatch Range"
    },
    {
      "id": 6,
      "name": "Uncompahgre Peak",
      "latitude": 38.0717,
      "longitude": -107.4628,
      "elevation": 14321,
      "country": "United States",
      "state": "Colorado",
      "region": "San Juan Mountains"
    },
    {
      "id": 7,
      "name": "Crestone Peak",
      "latitude": 37.9668,
      "longitude": -105.5857,
      "elevation": 14300,
      "country": "United States",
      "state": "Colorado",
      "region": "Sangre de Cristo Range"
    },
    {
      "id": 8,
      "name": "Mount Lincoln",
      "latitude": 39.3513,
      "longitude": -106.1116,
      "elevation": 14286,
      "country": "United States",
      "state": "Colorado",
      "region": "Mosquito Range"
    },
    {
      "id": 9,
      "name": "Grays Peak",
      "latitude": 39.6339,
      "longitude": -105.8175,
      "elevation": 14278,
      "country": "United States",
      "state": "Colorado",
      "region": "Front Range"
    },
    {
      "id": 10,
      "name": "Mount Antero",
      "latitude": 38.6742,
      "longitude": -106.2466,
      "elevation": 14276,
      "country": "United States",
      "state": "Colorado",
      "region": "Sawatch Range"
    },
    {
      "id": 11,
      "name": "Torreys Peak",
      "latitude": 39.6429,
      "longitude": -105.8219,
      "elevation": 14275,
      "country": "United States",
      "state": "Colorado",
      "region": "Front Range"
    },
    {
      "id": 12,
      "name": "Castle Peak",
      "latitude": 39.0091,
      "longitude": -106.8617,
      "elevation": 14265,
      "country": "United States",
      "state": "Colorado",
      "region": "Elk Mountains"
    },
    {
      "id": 13,
      "name": "Quandary Peak",
      "latitude": 39.3972,
      "longitude": -106.1066,
      "elevation": 14265,
      "country": "United States",
      "state": "Colorado",
      "region": "Tenmile Range"
    },
    {
      "id": 14,
      "name": "Mount Evans",
      "latitude": 39.5883,
      "longitude": -105.6438,
      "elevation": 14271,
      "country": "United States",
      "state": "Colorado",
      "region": "Front Range"
    },
    {
      "id": 15,
      "name": "Longs Peak",
      "latitude": 40.2549,
      "longitude": -105.615,
      "elevation": 14259,
      "country": "United States",
      "state": "Colorado",
      "region": "Front Range"
    },
    {
      "id": 16,
      "name": "Mount Wilson",
      "latitude": 37.8392,
      "longitude": -107.9918,
      "elevation": 14252,
      "country": "United States",
      "state": "Colorado",
      "region": "San Juan Mountains"
    },
    {
      "id": 17,
      "name": "Mount Shavano",
      "latitude": 38.6191,
      "longitude": -106.2392,
      "elevation": 14229,
      "country": "United States",
      "state": "Colorado",
      "region": "Sawatch Range"
    },
    {
      "id": 18,
      "name": "Mount Belford",
      "latitude": 38.9609,
      "longitude": -106.3605,
      "elevation": 14197,
      "country": "United States",
      "state": "Colorado",
      "region": "Collegiate Peaks"
    },
    {
      "id": 19,
      "name": "Crestone Needle",
      "latitude": 37.9647,
      "longitude": -105.5761,
      "elevation": 14197,
      "country": "United States",
      "state": "Colorado",
      "region": "Sangre de Cristo Range"
    },
    {
      "id": 20,
      "name": "Mount Princeton",
      "latitude": 38.7492,
      "longitude": -106.2424,
      "elevation": 14197,
      "country": "United States",
      "state": "Colorado",
      "region": "Collegiate Peaks"
    },
    {
      "id": 21,
      "name": "Mount Yale",
      "latitude": 38.8442,
      "longitude": -106.3133,
      "elevation": 14196,
      "country": "United States",
      "state": "Colorado",
      "region": "Collegiate Peaks"
    },
    {
      "id": 22,
      "name": "Mount Bross",
      "latitude": 39.335,
      "longitude": -106.106,
      "elevation": 14172,
      "country": "United States",
      "state": "Colorado",
      "region": "Mosquito Range"
    },
    {
      "id": 23,
      "name": "Kit Carson Peak",
      "latitude": 37.9795,
      "longitude": -105.5683,
      "elevation": 14171,
      "country": "United States",
      "state": "Colorado",
      "region": "Sangre de Cristo Range"
    },
    {
      "id": 24,
      "name": "El Diente Peak",
      "latitude": 37.8391,
      "longitude": -108.0061,
      "elevation": 14159,
      "country": "United States",
      "state": "Colorado",
      "region": "San Juan Mountains"
    },
    {
      "id": 25,
      "name": "Maroon Peak",
      "latitude": 39.0706,
      "longitude": -106.989,
      "elevation": 14163,
      "country": "United States",
      "state": "Colorado",
      "region": "Elk Mountains"
    },
    {
      "id": 26,
      "name": "Tabeguache Peak",
      "latitude": 38.6257,
      "longitude": -106.2503,
      "elevation": 14155,
      "country": "United States",
      "state": "Colorado",
      "region": "Sawatch Range"
    },
    {
      "id": 27,
      "name": "Mount Oxford",
      "latitude": 38.9639,
      "longitude": -106.3386,
      "elevation": 14153,
      "country": "United States",
      "state": "Colorado",
      "region": "Collegiate Peaks"
    },
    {
      "id": 28,
      "name": "Mount Sneffels",
      "latitude": 38.0037,
      "longitude": -107.7914,
      "elevation": 14150,
      "country": "United States",
      "state": "Colorado",
      "region": "San Juan Mountains"
    },
    {
      "id": 29,
      "name": "Mount Democrat",
      "latitude": 39.3392,
      "longitude": -106.1398,
      "elevation": 14148,
      "country": "United States",
      "state": "Colorado",
      "region": "Mosquito Range"
    },
    {
      "id": 30,
      "name": "Capitol Peak",
      "latitude": 39.1502,
      "longitude": -107.0828,
      "elevation": 14137,
      "country": "United States",
      "state": "Colorado",
      "region": "Elk Mountains"
    },
    {
      "id": 31,
      "name": "Pikes Peak",
      "latitude": 38.8409,
      "longitude": -105.0423,
      "elevation": 14115,
      "country": "United States",
      "state": "Colorado",
      "region": "Front Range"
    },
    {
      "id": 32,
      "name": "Snowmass Mountain",
      "latitude": 39.1186,
      "longitude": -107.0653,
      "elevation": 14099,
      "country": "United States",
      "state": "Colorado",
      "region": "Elk Mountains"
    },
    {
      "id": 33,
      "name": "Windom Peak",
      "latitude": 37.6218,
      "longitude": -107.5914,
      "elevation": 14093,
      "country": "United States",
      "state": "Colorado",
      "region": "Needle Mountains"
    },
    {
      "id": 34,
      "name": "Mount Eolus",
      "latitude": 37.6216,
      "longitude": -107.6208,
      "elevation": 14083,
      "country": "United States",
      "state": "Colorado",
      "region": "Needle Mountains"
    },
    {
      "id": 35,
      "name": "Challenger Point",
      "latitude": 37.9803,
      "longitude": -105.6065,
      "elevation": 14081,
      "country": "United States",
      "state": "Colorado",
      "region": "Sangre de Cristo Range"
    },
    {
      "id": 36,
      "name": "Mount Columbia",
      "latitude": 38.9037,
      "longitude": -106.2975,
      "elevation": 14073,
      "country": "United States",
      "state": "Colorado",
      "region": "Collegiate Peaks"
    },
    {
      "id": 37,
      "name": "Missouri Mountain",
      "latitude": 38.9472,
      "longitude": -106.3781,
      "elevation": 14067,
      "country": "United States",
      "state": "Colorado",
      "region": "Collegiate Peaks"
    },
    {
      "id": 38,
      "name": "Humboldt Peak",
      "latitude": 37.9762,
      "longitude": -105.5541,
      "elevation": 14064,
      "country": "United States",
      "state": "Colorado",
      "region": "Sangre de Cristo Range"
    },
    {
      "id": 39,
      "name": "Mount Bierstadt",
      "latitude": 39.5826,
      "longitude": -105.6438,
      "elevation": 14065,
      "country": "United States",
      "state": "Colorado",
      "region": "Front Range"
    },
    {
      "id": 40,
      "name": "Sunlight Peak",
      "latitude": 37.6272,
      "longitude": -107.5959,
      "elevation": 14061,
      "country": "United States",
      "state": "Colorado",
      "region": "Needle Mountains"
    },
    {
      "id": 41,
      "name": "Handies Peak",
      "latitude": 37.9139,
      "longitude": -107.5048,
      "elevation": 14058,
      "country": "United States",
      "state": "Colorado",
      "region": "San Juan Mountains"
    },
    {
      "id": 42,
      "name": "Culebra Peak",
      "latitude": 37.1223,
      "longitude": -105.1856,
      "elevation": 14053,
      "country": "United States",
      "state": "Colorado",
      "region": "Sangre de Cristo Range"
    },
    {
      "id": 43,
      "name": "Ellingwood Point",
      "latitude": 37.5828,
      "longitude": -105.4928,
      "elevation": 14048,
      "country": "United States",
      "state": "Colorado",
      "region": "Sangre de Cristo Range"
    },
    {
      "id": 44,
      "name": "Mount Lindsey",
      "latitude": 37.5845,
      "longitude": -105.4405,
      "elevation": 14042,
      "country": "United States",
      "state": "Colorado",
      "region": "Sangre de Cristo Range"
    },
    {
      "id": 45,
      "name": "North Eolus",
      "latitude": 37.6252,
      "longitude": -107.6186,
      "elevation": 14039,
      "country": "United States",
      "state": "Colorado",
      "region": "Needle Mountains"
    },
    {
      "id": 46,
      "name": "Little Bear Peak",
      "latitude": 37.5668,
      "longitude": -105.4979,
      "elevation": 14037,
      "country": "United States",
      "state": "Colorado",
      "region": "Sangre de Cristo Range"
    },
    {
      "id": 47,
      "name": "Mount Sherman",
      "latitude": 39.2251,
      "longitude": -106.1698,
      "elevation": 14036,
      "country": "United States",
      "state": "Colorado",
      "region": "Mosquito Range"
    },
    {
      "id": 48,
      "name": "Redcloud Peak",
      "latitude": 37.9405,
      "longitude": -107.4214,
      "elevation": 14034,
      "country": "United States",
      "state": "Colorado",
      "region": "San Juan Mountains"
    },
    {
      "id": 49,
      "name": "Pyramid Peak",
      "latitude": 39.0717,
      "longitude": -106.9509,
      "elevation": 14025,
      "country": "United States",
      "state": "Colorado",
      "region": "Elk Mountains"
    },
    {
      "id": 50,
      "name": "Wilson Peak",
      "latitude": 37.8605,
      "longitude": -107.9848,
      "elevation": 14023,
      "country": "United States",
      "state": "Colorado",
      "region": "San Juan Mountains"
    },
    {
      "id": 51,
      "name": "Wetterhorn Peak",
      "latitude": 38.0605,
      "longitude": -107.5103,
      "elevation": 14021,
      "country": "United States",
      "state": "Colorado",
      "region": "San Juan Mountains"
    },
    {
      "id": 52,
      "name": "San Luis Peak",
      "latitude": 37.9867,
      "longitude": -106.9319,
      "elevation": 14014,
      "country": "United States",
      "state": "Colorado",
      "region": "La Garita Mountains"
    },
    {
      "id": 53,
      "name": "North Maroon Peak",
      "latitude": 39.0764,
      "longitude": -106.9872,
      "elevation": 14014,
      "country": "United States",
      "state": "Colorado",
      "region": "Elk Mountains"
    },
    {
      "id": 54,
      "name": "Mount of the Holy Cross",
      "latitude": 39.4664,
      "longitude": -106.4814,
      "elevation": 14005,
      "country": "United States",
      "state": "Colorado",
      "region": "Sawatch Range"
    },
    {
      "id": 55,
      "name": "Huron Peak",
      "latitude": 38.9457,
      "longitude": -106.4389,
      "elevation": 14003,
      "country": "United States",
      "state": "Colorado",
      "region": "Collegiate Peaks"
    },
    {
      "id": 56,
      "name": "Sunshine Peak",
      "latitude": 37.9225,
      "longitude": -107.4217,
      "elevation": 14001,
      "country": "United States",
      "state": "Colorado",
      "region": "San Juan Mountains"
    },
    {
      "id": 57,
      "name": "Mount Manan",
      "latitude": 39.878599650223,
      "longitude": 104.92426711587635,
      "elevation": 1400,
      "country": "United States",
      "state": "Colorado",
      "region": "San Juan Mountains"
    },
    {
      "id": 58,
      "name": "Mount Wilson",
      "latitude": 37.8392,
      "longitude": -107.9918,
      "elevation": 14000,
      "country": "United States",
      "state": "Colorado",
      "region": "San Juan Mountains"
    }
  ]
}